City,Lat,Lng,Max Temp,Humidity,Cloudiness,Wind Speed,Country,Date
novoagansk,61.9449,76.6625,21.11,98,100,3.94,RU,1650825908
narsaq,60.9167,-46.05,50.22,79,100,3.29,GL,1650825908
cabo san lucas,22.8909,-109.9124,81.61,62,0,7.38,MX,1650826075
vaini,-21.2,-175.2,69.96,94,75,1.14,TO,1650826075
tucuman,-26.8241,-65.2226,78.8,61,20,3.44,AR,1650826031
kenai,60.5544,-151.2583,44.69,87,0,8.05,US,1650826076
ponta do sol,32.6667,-17.1,66.7,71,80,7.34,PT,1650826076
mys shmidta,,,,,,,,
tasiilaq,65.6145,-37.6368,41.16,70,100,3.91,GL,1650826008
saskylakh,71.9167,114.0833,-7.94,100,85,2.46,RU,1650826077
punta arenas,-53.15,-70.9167,44.71,70,75,3.44,CL,1650826068
fare,-16.7,-151.0167,81.12,72,59,6.98,PF,1650826077
avarua,-21.2078,-159.775,80.65,78,90,3.44,CK,1650826077
kichmengskiy gorodok,59.9816,45.7854,32,95,10,4.14,RU,1650826078
qaanaaq,77.484,-69.3632,7.41,73,90,6.22,GL,1650826078
jamestown,42.097,-79.2353,82.06,36,0,12.66,US,1650825780
weligama,5.9667,80.4167,78.28,87,17,1.28,LK,1650826079
seoul,37.5683,126.9778,62.2,94,75,3.44,KR,1650826003
chuy,-33.6971,-53.4616,74.98,34,0,10.02,UY,1650826079
hermanus,-34.4187,19.2345,50.81,79,67,5.61,ZA,1650826079
ushuaia,-54.8,-68.3,44.26,70,75,6.91,AR,1650826080
sentyabrskiy,,,,,,,,
fara in sabina,42.2089,12.7292,56.26,90,100,5.35,IT,1650826080
mukhen,48.1,136.1,34.45,64,0,5.84,RU,1650826080
santa eulalia del rio,,,,,,,,
busselton,-33.65,115.3333,64.96,50,98,12.64,AU,1650826081
shingu,33.7333,135.9833,62.92,93,100,1.07,JP,1650826081
paciran,-6.8767,112.3761,78.66,86,79,5.66,ID,1650826082
tubruq,,,,,,,,
albany,42.6001,-73.9662,69.24,32,90,3,US,1650825906
nikolskoye,59.7035,30.7861,45.88,90,100,10.63,RU,1650826109
mataura,-46.1927,168.8643,52.48,92,100,5.84,NZ,1650825990
angoche,-16.2325,39.9086,75.74,91,100,5.01,MZ,1650826109
puerto ayora,-0.7393,-90.3518,75.16,76,28,12.88,EC,1650825989
new norfolk,-42.7826,147.0587,53.92,86,58,0.69,AU,1650826110
huallanca,-9.8993,-76.9417,61.2,42,55,10.22,PE,1650826110
provideniya,64.3833,-173.3,27.63,69,1,2.75,RU,1650826110
severomorsk,69.0689,33.4162,39.6,85,100,8.99,RU,1650826111
chifeng,42.2683,118.9636,52.83,44,0,3.87,CN,1650826111
hobart,-42.8794,147.3294,54.27,90,100,5.75,AU,1650825993
nalut,30.3333,10.85,79.39,10,1,9.1,LY,1650826111
maumere,-8.6199,122.2111,79.65,76,27,5.44,ID,1650826112
waipawa,-41.4122,175.5153,51.3,84,98,7.83,NZ,1650826112
umm lajj,25.0213,37.2685,78.4,50,0,0.76,SA,1650826112
nagato,34.3833,131.2,55.2,92,12,6.08,JP,1650826113
georgetown,5.4112,100.3354,82.33,98,40,5.01,MY,1650826113
itarema,-2.9248,-39.9167,80.78,82,95,5.53,BR,1650826113
khatanga,71.9667,102.5,-14.69,100,100,4.79,RU,1650826114
butaritari,3.0707,172.7902,80.31,78,100,13.58,KI,1650826013
hasaki,35.7333,140.8333,57.6,90,6,3.83,JP,1650826066
touros,-5.1989,-35.4608,81.37,79,100,14.47,BR,1650826114
taolanaro,,,,,,,,
iqaluit,63.7506,-68.5145,22.73,79,100,15.01,CA,1650826115
kesinga,20.2,83.2333,89.87,25,2,4.45,IN,1650826115
bungu,-7.6337,39.0582,73.2,94,100,1.68,TZ,1650826115
barentsburg,,,,,,,,
bumba,2.1833,22.4667,74.61,87,44,3.31,CD,1650826116
deputatskiy,69.3,139.9,-0.72,99,100,0.6,RU,1650826116
vardo,70.3705,31.1107,35.58,93,75,10.36,NO,1650826116
lavrentiya,65.5833,-171,18.39,88,44,4.81,RU,1650826117
san andres,12.5847,-81.7006,80.62,78,75,12.66,CO,1650826117
carnarvon,-24.8667,113.6333,66.27,94,3,5.75,AU,1650826117
castro,-24.7911,-50.0119,75.96,57,1,1.86,BR,1650826035
rikitea,-23.1203,-134.9692,73.2,87,100,12.37,PF,1650826118
lorengau,-2.0226,147.2712,80.78,81,64,5.44,PG,1650826118
dargaville,-35.9333,173.8833,59.29,89,100,8.01,NZ,1650826119
yellowknife,62.456,-114.3525,28.92,64,20,13.8,CA,1650825992
kapaa,22.0752,-159.319,78.78,84,100,18.41,US,1650826119
chicama,-7.8447,-79.1469,61.34,61,29,11.48,PE,1650826120
dikson,73.5069,80.5464,5.23,96,96,12.57,RU,1650826120
illoqqortoormiut,,,,,,,,
chumikan,54.7183,135.315,25.03,97,100,4.63,RU,1650826121
bom jesus,-9.0744,-44.3586,93.9,30,100,5.46,BR,1650826121
ecoporanga,-18.3733,-40.8306,87.76,50,31,8.7,BR,1650826122
kingston,17.997,-76.7936,78.24,80,75,25.32,JM,1650825908
nanortalik,60.1432,-45.2371,38.1,88,95,1.01,GL,1650826122
mogadishu,2.0371,45.3438,83.52,76,7,14.2,SO,1650826122
kaoma,-14.7833,24.8,67.78,74,94,3.76,ZM,1650826123
tongren,27.7172,109.1853,69.96,96,100,2.53,CN,1650826123
viedma,-40.8135,-62.9967,71.33,36,100,23.87,AR,1650826124
port hardy,50.6996,-127.4199,48.38,81,100,4.61,CA,1650826124
bubaque,11.2833,-15.8333,77.7,81,76,19.69,GW,1650826124
mehamn,71.0357,27.8492,35.82,78,100,13.8,NO,1650826125
chokurdakh,70.6333,147.9167,-13.67,100,95,3.71,RU,1650826125
khor,47.8861,134.9464,36.19,47,0,5.5,RU,1650826125
bundaberg,-24.85,152.35,64.69,93,40,8.05,AU,1650826126
xiongyue,40.1774,122.1228,54.01,90,100,6.02,CN,1650826126
ambositra,-20.5167,47.25,59.72,98,96,3.18,MG,1650826126
mar del plata,-38.0023,-57.5575,76.95,58,0,15.99,AR,1650825854
atar,20.5169,-13.0499,86.05,21,0,6.91,MR,1650826127
amderma,,,,,,,,
palmer,42.1584,-72.3287,59.07,41,100,4.61,US,1650825868
los banos,14.1667,121.1833,82.89,88,98,5.77,PH,1650826127
port alfred,-33.5906,26.891,59.18,83,95,1.99,ZA,1650825997
vila franca do campo,37.7167,-25.4333,61.21,73,17,13.44,PT,1650826128
marzuq,14.4,46.4667,71.17,64,7,7.83,YE,1650826128
lolua,,,,,,,,
coahuayana,18.7333,-103.6833,88.77,36,100,7.94,MX,1650826129
middelburg,-25.7751,29.4648,62.46,63,21,4.27,ZA,1650826129
kavieng,-2.5744,150.7967,81.46,76,100,7.58,PG,1650826129
nampa,43.5407,-116.5635,60.85,39,0,5.75,US,1650826130
taoudenni,22.6783,-3.9836,86.72,20,0,11.65,ML,1650826057
aksu,41.1231,80.2644,69.67,22,96,5.79,CN,1650826130
rapid valley,44.0625,-103.1463,43.32,58,40,43.73,US,1650825941
lagunas,-5.2269,-75.6753,84.4,78,100,2.44,PE,1650826130
upernavik,72.7868,-56.1549,10.94,84,16,10.89,GL,1650826020
ponta delgada,37.7333,-25.6667,61.52,67,20,19.57,PT,1650826103
kodiak,57.79,-152.4072,44.11,76,75,9.22,US,1650826131
hilo,19.7297,-155.09,78.28,88,75,4.61,US,1650826124
campbellsville,37.3434,-85.3419,81.72,35,100,10,US,1650825439
norman wells,65.282,-126.8329,44.64,49,20,16.11,CA,1650825533
esperance,-33.8667,121.9,55.24,89,0,10.76,AU,1650825533
namuac,18.6109,121.1657,78.17,86,5,11.56,PH,1650825533
ancud,-41.8697,-73.8203,46.22,76,100,24.76,CL,1650825534
assiniboia,49.6334,-105.9845,44.42,39,100,24.16,CA,1650825534
beringovskiy,63.05,179.3167,19.24,96,99,0.87,RU,1650825534
saint-philippe,-21.3585,55.7679,76.59,77,100,13.69,RE,1650825535
clyde river,70.4692,-68.5914,7.03,78,100,5.75,CA,1650825535
geraldton,-28.7667,114.6,59.41,72,100,8.05,AU,1650825535
victoria,22.2855,114.1577,81.32,88,7,5.99,HK,1650825386
pangnirtung,66.1451,-65.7125,19.4,68,100,3.44,CA,1650825536
atuona,-9.8,-139.0333,78.98,76,8,15.12,PF,1650825536
lebu,-37.6167,-73.65,53.6,83,100,17.25,CL,1650825537
raymond,43.9015,-70.4703,59.63,16,18,2.48,US,1650825537
bredasdorp,-34.5322,20.0403,54.72,87,25,4.76,ZA,1650825537
belushya guba,,,,,,,,
sorong,-0.8833,131.25,80.33,83,100,7.11,ID,1650825538
mount darwin,-16.7725,31.5838,66.87,83,0,1.45,ZW,1650825538
pietarsaari,63.65,22.6833,39.47,77,7,3.53,FI,1650825538
yerbogachen,61.2767,108.0108,25.29,98,100,3.29,RU,1650825539
lompoc,34.6391,-120.4579,83.7,56,0,11.5,US,1650825539
la rochelle,46.1667,-1.15,55.47,88,100,13.8,FR,1650825539
faanui,-16.4833,-151.75,81.19,70,19,6.42,PF,1650825540
benghazi,32.1167,20.0667,64.27,70,100,16.28,LY,1650825540
kununurra,-15.7667,128.7333,67.98,88,67,0,AU,1650825540
udachnyy,66.4167,112.4,-1.79,99,48,1.21,RU,1650825541
pucallpa,-8.3791,-74.5539,91.44,58,75,3.44,PE,1650825541
saint-joseph,-21.3667,55.6167,75.58,75,100,13.91,RE,1650825542
cape town,-33.9258,18.4232,59.41,77,20,10.36,ZA,1650825542
barrow,71.2906,-156.7887,10.42,79,0,11.5,US,1650825542
skibbereen,51.55,-9.2667,53.11,77,66,12.33,IE,1650825543
asfi,32.2994,-9.2372,61.92,68,1,16.04,MA,1650825543
hithadhoo,-0.6,73.0833,84.74,72,88,10.71,MV,1650825388
hirara,24.8,125.2833,78.1,90,0,13.09,JP,1650825544
maningrida,-12.0667,134.2667,76.48,86,100,3.89,AU,1650825544
mahebourg,-20.4081,57.7,75.49,78,75,16.11,MU,1650825545
maceio,-9.6658,-35.7353,85.44,61,40,9.22,BR,1650825545
pemangkat,1.1667,108.9667,80.06,82,99,5.35,ID,1650825545
sept-iles,50.2001,-66.3821,48.63,42,20,10.36,CA,1650825271
nuuk,64.1835,-51.7216,32.61,93,75,8.05,GL,1650825546
souillac,-20.5167,57.5167,75.58,78,75,16.11,MU,1650825546
kokoda,-8.8785,147.7407,73.04,94,65,0.96,PG,1650825546
ostrovnoy,68.0531,39.5131,34.3,97,100,13.51,RU,1650825338
lata,40.1629,-8.3327,61.81,82,90,3.69,PT,1650825547
gbadolite,4.2833,21.0167,75.31,84,100,2.71,CD,1650825547
bluff,-46.6,168.3333,53.8,84,98,20.04,NZ,1650825547
haines junction,60.7522,-137.5108,42.75,56,100,3.44,CA,1650825548
goderich,43.7501,-81.7165,59.83,79,65,19.22,CA,1650825522
dossor,47.5272,52.9811,57.9,51,95,18.01,KZ,1650825548
pevek,69.7008,170.3133,2.77,98,98,4.47,RU,1650825548
kahului,20.8947,-156.47,75.85,75,40,12.66,US,1650825409
makakilo city,21.3469,-158.0858,75.52,72,100,13.8,US,1650825376
cherskiy,68.75,161.3,1.58,98,86,5.35,RU,1650825574
praia da vitoria,38.7333,-27.0667,62.85,72,40,21.81,PT,1650825574
dolbeau,,,,,,,,
redlands,34.0556,-117.1825,82.18,18,0,1.01,US,1650825522
atasu,48.6814,71.6433,40.86,60,100,12.01,KZ,1650825337
catamarca,-28.4696,-65.7852,87.58,43,0,1.01,AR,1650825575
padang,-0.9492,100.3543,78.26,87,100,4.61,ID,1650825575
toliary,,,,,,,,
saldanha,-33.0117,17.9442,55.45,82,0,15.84,ZA,1650825576
staraya poltavka,50.4772,46.4814,54.27,74,76,6.93,RU,1650825319
portel,-1.9356,-50.8211,82.92,76,95,3.96,BR,1650825576
sakakah,29.9697,40.2064,78.37,60,42,24.27,SA,1650825576
sungairaya,0.7,108.9,79.43,85,100,4.27,ID,1650825577
bambous virieux,-20.3428,57.7575,75.45,78,75,16.11,MU,1650825577
mokhsogollokh,61.4681,128.9203,23.07,96,100,3.83,RU,1650825577
sibolga,1.7427,98.7792,76.98,89,46,2.98,ID,1650825578
gull lake,50.1001,-108.4847,45.95,57,13,7.27,CA,1650825527
saleaula,,,,,,,,
ilulissat,69.2167,-51.1,30.22,86,100,4.61,GL,1650825578
santa maria,-29.6842,-53.8069,76.3,61,0,12.66,BR,1650825578
la quinta,33.6634,-116.31,83.98,10,0,11.5,US,1650825579
krasnozerskoye,53.9828,79.2374,32.32,58,20,5.86,RU,1650825579
half moon bay,37.4636,-122.4286,73.9,68,20,4.61,US,1650825527
pimentel,-6.8367,-79.9342,73.69,64,0,12.66,PE,1650825580
christchurch,-43.5333,172.6333,45.95,90,100,1.14,NZ,1650825580
santa cruz,-17.8,-63.1667,86.05,66,75,17.27,BO,1650825580
naze,28.3667,129.4833,68.92,91,14,6.73,JP,1650825580
port lincoln,-34.7333,135.8667,64.27,80,100,3.29,AU,1650825525
kuche,,,,,,,,
lincoln,40.8,-96.667,58.17,40,75,27.63,US,1650825404
east london,-33.0153,27.9116,61.74,88,20,10.36,ZA,1650825499
guajara-mirim,,,,,,,,
husavik,66.0449,-17.3389,43.12,83,100,2.21,IS,1650825581
saint george,37.1041,-113.5841,68.63,20,0,4.61,US,1650825527
pousat,,,,,,,,
leh,34.1667,77.5833,40.37,33,89,3.89,IN,1650825582
luderitz,-26.6481,15.1594,59,56,0,23.47,NA,1650825355
ust-kamchatsk,,,,,,,,
bengkulu,-3.8004,102.2655,77.13,90,100,5.19,ID,1650825582
yar-sale,66.8333,70.8333,4.48,97,29,3.67,RU,1650825583
colombo,6.9319,79.8478,82.35,79,24,2.13,LK,1650825583
hamilton,39.1834,-84.5333,83.19,49,40,14.97,US,1650825583
praia,14.9215,-23.5087,82.94,42,0,14.97,CV,1650825584
bethel,41.3712,-73.414,66.02,40,0,13.8,US,1650825584
cayenne,4.9333,-52.3333,84.24,1,75,11.5,GF,1650825584
dhidhdhoo,6.8833,73.1,84.07,71,100,2.68,MV,1650825584
vao,-22.6667,167.4833,74.21,64,100,23.8,NC,1650825585
cabra,37.4725,-4.4421,55.9,64,99,3.2,ES,1650825585
kashiwara,34.45,135.7667,63.28,97,100,0.83,JP,1650825585
balagansk,54.0103,103.0544,25.52,93,100,16.6,RU,1650825586
tabiauea,,,,,,,,
verkhnyaya maksakovka,61.635,50.9674,41.18,60,40,7,RU,1650825586
pisco,-13.7,-76.2167,64.45,88,20,10.36,PE,1650825586
tabou,4.423,-7.3528,82.35,82,100,11.59,CI,1650825587
lyuban,52.7985,28.0048,47.89,80,100,3.94,BY,1650825587
kolosovka,56.4678,73.611,35.33,54,13,6.2,RU,1650825587
kamenka,51.3223,42.7678,53.78,70,100,10.42,RU,1650825613
cidreira,-30.1811,-50.2056,70.59,73,4,17.54,BR,1650825613
morshansk,53.4435,41.8107,49.62,95,100,4.81,RU,1650825613
rundu,-17.9333,19.7667,68.9,36,22,3.49,NA,1650825614
nerchinskiy zavod,51.3088,119.61,29.37,84,14,1.5,RU,1650825614
pangody,65.85,74.4859,8.53,96,100,4.97,RU,1650825614
bednodemyanovsk,,,,,,,,
hualmay,-11.0964,-77.6139,72.57,74,9,12.44,PE,1650825615
qaqortoq,60.7167,-46.0333,39.87,81,100,6.85,GL,1650825615
yanchukan,,,,,,,,
sola,-13.8833,167.55,72.27,100,75,0,VU,1650825616
omboue,-1.5746,9.2618,77.99,86,100,2.26,GA,1650825616
whitehorse,60.7161,-135.0538,45.1,54,75,8.05,CA,1650825527
koulamoutou,-1.1303,12.4736,74.59,92,100,1.12,GA,1650825616
tiksi,71.6872,128.8694,-6.09,100,100,1.59,RU,1650825617
moron,-34.6534,-58.6198,79.02,34,6,12.48,AR,1650825617
talnakh,69.4865,88.3972,-6.74,100,89,2.3,RU,1650825617
okhotsk,59.3833,143.3,24.13,98,100,7.34,RU,1650825618
nelson bay,-32.7167,152.15,59,96,100,1.5,AU,1650825618
katsuura,35.1333,140.3,61.39,90,11,4.81,JP,1650825618
margherita,27.2833,95.6833,68.49,91,3,1.32,IN,1650825619
schruns,47.0709,9.9475,42.62,100,100,3.2,AT,1650825619
sahrak,,,,,,,,
moen,69.1304,18.6123,41.72,75,75,3.44,NO,1650825619
tuktoyaktuk,69.4541,-133.0374,17.6,79,0,3.44,CA,1650825620
sitka,57.0531,-135.33,46.29,76,100,5.75,US,1650825620
bushehr,28.9684,50.8385,80.69,57,0,9.22,IR,1650825620
broome,42.2506,-75.833,79.47,44,9,5.01,US,1650825621
mogapi,-22.323,27.8349,71.73,54,85,3.49,BW,1650825621
kapoeta,4.7717,33.5903,82.85,50,100,6.64,SS,1650825621
mount isa,-20.7333,139.5,65.97,100,100,6.91,AU,1650825622
mehriz,31.5917,54.4318,77.5,12,82,3.56,IR,1650825622
te anau,-45.4167,167.7167,45.82,87,55,1.25,NZ,1650825622
phetchabun,16.25,101.0833,85.05,55,9,2.3,TH,1650825623
mecca,21.4267,39.8261,83.39,58,0,2.77,SA,1650825623
halalo,,,,,,,,
eureka,40.8021,-124.1637,59.2,78,2,5.01,US,1650825624
atbasar,51.8,68.3333,39.74,44,90,11.25,KZ,1650825624
dingle,10.9995,122.6711,77.05,91,100,6.46,PH,1650825624
mujiayingzi,42.1167,118.7833,52.54,46,0,4.52,CN,1650825625
severo-kurilsk,50.6789,156.125,31.42,84,85,11.3,RU,1650825538
mata,40.683,-7.4592,52.59,81,100,2.91,PT,1650825625
aykhal,66,111.5,2.57,99,35,1.7,RU,1650825625
gomel,52.4345,30.9754,49.98,76,0,6.71,BY,1650825626
bereda,43.2686,-7.5406,49.28,95,72,1.01,ES,1650825626
wasilla,61.5814,-149.4394,47.52,59,0,3.44,US,1650825524
kanigiri,15.4,79.5167,84.61,58,0,6.55,IN,1650825627
ust-kuyga,70.0167,135.6,-10.01,100,98,1.79,RU,1650825627
cherdyn,60.403,56.4787,34.45,97,100,2.24,RU,1650825627
safford,32.834,-109.7076,74.12,12,0,9.22,US,1650825628
coihaique,-45.5752,-72.0662,41.61,93,100,8.05,CL,1650825548
ndele,8.4109,20.6473,79.18,65,100,1.72,CF,1650825628
arraial do cabo,-22.9661,-42.0278,80.56,74,20,11.5,BR,1650825492
tuban,-6.8976,112.0649,78.62,85,100,4.14,ID,1650825629
ketchikan,55.3422,-131.6461,45.07,87,100,16.11,US,1650825654
tautira,-17.7333,-149.15,80.35,72,65,7.2,PF,1650825654
salalah,17.0151,54.0924,81.37,76,12,4.79,OM,1650825655
bilibino,68.0546,166.4372,3.9,97,72,4.16,RU,1650825655
araure,9.5601,-69.2148,92.25,38,99,2.3,VE,1650825655
hofn,64.2539,-15.2082,43.5,89,100,3.18,IS,1650825656
qandahar,,,,,,,,
caravelas,-17.7125,-39.2481,83.84,70,5,8.63,BR,1650825656
mudgee,-32.5943,149.5871,51.85,87,40,2.3,AU,1650825443
komsomolskiy,40.4272,71.7189,61.52,63,23,13.8,UZ,1650825657
bandarbeyla,9.4942,50.8122,81.81,73,6,11.3,SO,1650825657
aflu,,,,,,,,
urusha,54.05,122.9,28.27,59,100,3.11,RU,1650825657
noyabrsk,63.1994,75.4507,17.13,93,100,4.25,RU,1650825658
san quintin,30.4833,-115.95,70.25,47,0,10.58,MX,1650825658
broken hill,-31.95,141.4333,62.31,63,95,9.22,AU,1650825658
codrington,-38.2667,141.9667,47.68,92,99,6.67,AU,1650825659
vila do maio,15.1333,-23.2167,83.19,80,5,11.68,CV,1650825659
newport,51.5877,-2.9984,60.51,75,58,14.47,GB,1650825396
constitucion,-35.3333,-72.4167,57.09,95,100,18.61,CL,1650825659
tuatapere,-46.1333,167.6833,52.21,91,100,6.64,NZ,1650825660
kaitangata,-46.2817,169.8464,53.82,82,88,12.82,NZ,1650825660
gulshat,,,,,,,,
solovetskiy,,,,,,,,
chapais,49.7834,-74.8492,38.98,73,100,15.1,CA,1650825660
agirish,61.9247,63.0231,33.85,99,94,1.03,RU,1650825661
hof,50.3167,11.9167,46.45,89,75,13,DE,1650825661
najran,17.4924,44.1277,81.25,38,62,11.65,SA,1650825661
vredendal,-31.6683,18.5012,55.04,88,0,6.6,ZA,1650825662
melfi,40.9965,15.6514,45.36,68,0,4.27,IT,1650825662
thompson,55.7435,-97.8558,19.56,45,40,23.02,CA,1650825662
tsihombe,,,,,,,,
avera,33.194,-82.5271,80.65,45,12,7.05,US,1650825663
valday,57.9747,33.2525,44.74,98,100,5.86,RU,1650825663
lotoshino,56.2267,35.6414,45.88,97,100,6.42,RU,1650825663
barawe,,,,,,,,
blagoveshchensk,50.2667,127.5333,42.42,45,40,6.71,RU,1650825664
saint anthony,45.0205,-93.218,50.67,71,100,23.02,US,1650825664
samalaeulu,,,,,,,,
aquiraz,-3.9014,-38.3911,84.29,85,100,6.22,BR,1650825665
vila velha,-20.3297,-40.2925,82.35,77,20,21,BR,1650825665
laguna,38.421,-121.4238,74.05,43,90,1.01,US,1650825665
tarhunah,,,,,,,,
olinda,-8.0089,-34.8553,83.93,61,40,12.66,BR,1650825666
bella vista,36.4295,-94.2316,70.36,85,100,18.41,US,1650825666
mazamari,-11.3258,-74.5308,90.37,49,97,0.31,PE,1650825666
totolapa,18.5167,-96.1833,100.06,28,0,8.7,MX,1650825667
saint-denis,48.9167,2.3333,63.37,52,0,9.22,FR,1650825667
searcy,35.2506,-91.7363,79.14,71,100,12.66,US,1650825526
port elizabeth,-33.918,25.5701,59.31,81,0,16.11,ZA,1650825667
banda aceh,5.5577,95.3222,80.53,80,98,4.68,ID,1650825668
pasni,25.2631,63.471,80.74,79,0,9.04,PK,1650825668
ugoofaaru,5.6667,73,84.02,73,100,5.79,MV,1650825668
riberalta,-10.9833,-66.1,91.6,62,75,9.22,BO,1650825669
mopipi,-21.1833,24.8833,76.73,33,100,4.36,BW,1650825669
carauari,-4.8828,-66.8958,90.73,52,65,3.56,BR,1650825669
cururupu,-1.8283,-44.8683,83.66,64,37,4.52,BR,1650825527
jiayuguan,39.8167,98.3,61.9,16,0,9.82,CN,1650825670
itoman,26.1247,127.6694,75.97,96,75,9.22,JP,1650825695
labuhan,-6.8844,112.2051,78.69,85,100,5.23,ID,1650825695
emerald,-23.5333,148.1667,68.14,68,100,12.66,AU,1650825696
san patricio,28.017,-97.5169,87.19,55,39,23.11,US,1650825696
markova,48.6758,24.4138,49.89,84,7,5.06,UA,1650825696
shenjiamen,29.9576,122.298,59.72,98,100,12.5,CN,1650825509
cairns,-16.9167,145.7667,77.07,97,75,8.05,AU,1650825697
aleksandrov gay,50.147,48.5704,55.63,66,100,5.55,RU,1650825697
jishu,44.3167,126.8,46.47,43,6,6.26,CN,1650825697
lahat,-3.8,103.5333,72.39,97,100,2.57,ID,1650825698
zhigansk,66.7697,123.3711,-1.07,100,61,5.44,RU,1650825698
porto santo,33.072,-16.3415,66.58,63,20,16.11,PT,1650825698
sur,22.5667,59.5289,87.1,41,0,9.48,OM,1650825699
saint-augustin,51.226,-58.6502,38.97,85,100,21.36,CA,1650825699
sisimiut,66.9395,-53.6735,27.77,90,99,4.81,GL,1650825699
bathsheba,13.2167,-59.5167,84.81,61,75,20.71,BB,1650825700
namibe,-15.1961,12.1522,70.05,81,6,6.62,AO,1650825700
inuvik,68.3499,-133.7218,41.86,45,20,4.61,CA,1650825700
masuguru,-11.3667,38.4167,73.62,97,81,3.65,TZ,1650825701
beloha,-25.1667,45.05,75.81,67,87,7,MG,1650825701
abu dhabi,24.4667,54.3667,84.31,79,0,8.05,AE,1650825701
willowmore,-33.2926,23.4895,52.34,67,89,6.8,ZA,1650825702
fort william,56.8165,-5.1121,51.31,70,43,5.97,GB,1650825702
alugan,12.2188,125.4808,80.08,85,100,7.63,PH,1650825702
ewa beach,21.3156,-158.0072,76.95,71,40,13.8,US,1650825703
kemin,42.7846,75.6892,54.18,87,100,3.98,KG,1650825703
nizhneyansk,,,,,,,,
aklavik,68.2191,-135.0107,30.2,59,20,3.44,CA,1650825703
ribeira grande,38.5167,-28.7,59.4,77,40,14.97,PT,1650825704
penzance,50.1186,-5.5371,56.08,86,100,4.92,GB,1650825704
tura,25.5198,90.2201,74.05,87,95,6.4,IN,1650825704
pompeia,-22.1086,-50.1717,86.49,51,0,4.5,BR,1650825705
keetmanshoop,-26.5833,18.1333,56.32,21,0,8.05,NA,1650825705
kochi,9.9399,76.2602,78.78,79,97,2.53,IN,1650825435
iralaya,15,-83.2333,83.1,68,8,9.17,HN,1650825705
rungata,,,,,,,,
shar,49.5886,81.0453,32.86,60,100,6.13,KZ,1650825706
porosozero,62.7191,32.727,33.01,85,100,4.45,RU,1650825706
peleduy,59.6289,112.7406,25.34,98,100,0.6,RU,1650825706
meyungs,,,,,,,,
bekhteyevka,50.8072,37.2085,54.5,93,89,6.31,RU,1650825707
mociu,46.8,24.0333,64,86,100,15.46,RO,1650825707
kuito,-12.3833,16.9333,60.73,65,19,0.69,AO,1650825707
francavilla al mare,42.4206,14.287,66.16,52,100,11.5,IT,1650825708
kruisfontein,-34.0033,24.7314,56.88,72,98,7.54,ZA,1650825708
faya,18.3851,42.4509,64.51,46,100,2.84,SA,1650825708
alta floresta,-9.8756,-56.0861,91.22,58,40,5.75,BR,1650825709
nancha,47.1333,129.2667,41.58,52,100,0.29,CN,1650825709
attawapiskat,,,,,,,,
muroto,33.2833,134.15,64.76,90,100,4.41,JP,1650825709
hami,42.8,93.45,64.65,35,20,17.9,CN,1650825710
roura,4.7263,-52.3274,84.11,74,75,11.5,GF,1650825710
harnai,30.1005,67.9374,78.76,16,22,6.42,PK,1650825710
natal,-5.795,-35.2094,84.42,74,75,16.11,BR,1650825711
kuzovatovo,53.5468,47.6866,52.66,69,100,6.69,RU,1650825736
dunkwa,5.9656,-1.78,74.57,98,100,5.99,GH,1650825736
yasnyy,51.0333,59.8742,43.03,46,7,6.78,RU,1650825737
vagur,61.4732,-6.8119,43.57,78,100,20.67,FO,1650825737
otjimbingwe,-22.35,16.1333,68.9,42,0,5.14,NA,1650825737
roberval,48.5168,-72.2324,41.45,45,75,4.61,CA,1650825483
bonthe,7.5264,-12.505,82.45,78,100,13.71,SL,1650825738
tawkar,,,,,,,,
salisbury,51.0693,-1.7957,60.33,53,20,18.41,GB,1650825677
birjand,32.8663,59.2211,64.87,34,20,6.91,IR,1650825738
nemuro,43.3236,145.575,40.48,85,100,9.86,JP,1650825739
espanola,35.9911,-106.0806,63,14,0,4,US,1650825481
mackenzie,55.2999,-123.1698,46.62,61,100,9.22,CA,1650825522
zhucheng,35.9947,119.3975,61.39,89,100,7.7,CN,1650825739
saint-francois,46.4154,3.9054,53.67,94,75,4.61,FR,1650825740
kurchum,48.5722,83.6542,35.92,55,100,6.08,KZ,1650825740
nang rong,14.6377,102.7914,81.84,67,6,6.44,TH,1650825740
buraydah,26.326,43.975,70.25,53,100,17.9,SA,1650825740
necochea,-38.5473,-58.7368,74.03,50,38,14.25,AR,1650825676
lyngseidet,69.5763,20.2189,37.4,100,100,2.28,NO,1650825741
vestmanna,62.1564,-7.1664,41.92,81,85,11.5,FO,1650825741
corinto,37.9407,22.9573,66.42,63,72,2.55,GR,1650825717
leningradskiy,69.3833,178.4167,16.14,95,98,3.18,RU,1650825742
quang ngai,15.1167,108.8,76.15,94,18,5.86,VN,1650825742
biak,-0.9131,122.8766,77.05,83,64,1.16,ID,1650825742
guerrero negro,27.9769,-114.0611,75.34,37,0,10.2,MX,1650825743
duldurga,50.6761,113.5931,29.43,29,100,3.11,RU,1650825743
ciudad bolivar,8.1222,-63.5497,96.04,33,65,8.21,VE,1650825743
sena madureira,-9.0656,-68.6569,85.8,67,100,0.36,BR,1650825744
ikalamavony,-21.15,46.5833,67.17,82,97,7.27,MG,1650825744
hervey bay,-25.2986,152.8535,67.01,87,100,8.01,AU,1650825744
jiddah,,,,,,,,
neyshabur,36.2133,58.7958,67.57,47,100,6.31,IR,1650825745
ginir,7.1333,40.7,58.6,91,53,3.04,ET,1650825745
acajutla,13.5928,-89.8275,85.73,61,23,9.86,SV,1650825745
klaksvik,62.2266,-6.589,43.72,83,100,15.95,FO,1650825746
evensk,61.95,159.2333,25.03,90,100,24.61,RU,1650825746
fortuna,40.5982,-124.1573,58.93,78,100,8.05,US,1650825746
gawler,-34.6,138.7333,68.16,58,100,9.8,AU,1650825747
cap malheureux,-19.9842,57.6142,73.47,78,100,10,MU,1650825747
borogontsy,62.6683,131.1683,16.27,98,100,2.28,RU,1650825747
gamba,-2.65,10,77.97,90,100,4.59,GA,1650825748
bosaso,11.2842,49.1816,83.43,74,3,0.63,SO,1650825748
vestmannaeyjar,63.4427,-20.2734,47.39,81,0,13.8,IS,1650825748
bambanglipuro,-7.95,110.2833,77.27,90,100,6.17,ID,1650825749
kangasala,61.4638,24.076,41.27,85,47,5.1,FI,1650825666
huarmey,-10.0681,-78.1522,73.08,74,40,12.68,PE,1650825749
primorsk,46.7348,36.3443,55.29,81,0,4.83,UA,1650825749
the pas,53.8251,-101.2541,32.02,59,0,14.97,CA,1650825528
guadalupe victoria,32.2869,-115.105,85.57,7,0,18.84,MX,1650825750
fairview,40.8126,-73.999,65.12,40,0,13.8,US,1650825750
atikokan,48.7555,-91.6216,43,91,100,9.84,CA,1650825750
chara,56.9064,118.2631,18.19,64,65,0.92,RU,1650825776
kadykchan,,,,,,,,
iquitos,-3.7481,-73.2472,84.24,79,75,5.75,PE,1650825776
cape coast,5.1053,-1.2466,81.3,83,100,8.16,GH,1650825776
port angeles,48.1181,-123.4307,58.57,78,75,4.61,US,1650825777
aswan,24.0934,32.907,90.7,7,0,5.75,EG,1650825777
taksimo,56.3444,114.8794,21.81,76,35,2.86,RU,1650825777
gurskoye,,,,,,,,
port macquarie,-31.4333,152.9167,57.88,67,100,5.1,AU,1650825778
kudahuvadhoo,2.6708,72.8944,84.29,72,96,5.73,MV,1650825778
gilbues,-9.8317,-45.3439,88.92,40,100,4.27,BR,1650825779
yirol,,,,,,,,
teguise,29.0605,-13.564,62.82,68,20,6.91,ES,1650825779
srednekolymsk,67.45,153.6833,9.43,95,100,9.44,RU,1650825779
longlac,,,,,,,,
grand river south east,,,,,,,,
soubre,5.7856,-6.6083,79.84,83,100,6.87,CI,1650825780
sattur,9.3667,77.9333,85.01,66,12,5.59,IN,1650825780
odweyne,9.4092,45.064,77.88,56,100,8.19,SO,1650825780
horsham,51.064,-0.3272,59.85,58,0,11.5,GB,1650825781
uaua,-9.8414,-39.4817,90.63,32,99,19.39,BR,1650825781
marsh harbour,26.5412,-77.0636,76.05,68,0,16.08,BS,1650825781
shimoda,34.6667,138.95,59.11,91,37,2.84,JP,1650825782
wloszczowa,50.8526,19.9659,54.66,93,62,8.23,PL,1650825782
tabanan,-8.5413,115.1252,81,90,15,3.76,ID,1650825783
bilma,18.6853,12.9164,95.22,10,2,7.94,NE,1650825783
talcahuano,-36.7167,-73.1167,55.08,94,100,13.8,CL,1650825783
saint-pierre,-21.3393,55.4781,76.68,73,20,20.71,RE,1650825784
vysokogornyy,50.1167,139.15,16.75,97,93,5.44,RU,1650825784
mitikas,38.6699,20.9466,60.78,76,7,4.47,GR,1650825784
wanaka,-44.7,169.15,45.43,82,37,3.4,NZ,1650825785
pangoa,-12.1167,-73,84.31,59,95,4.38,PE,1650825785
suez,29.9737,32.5263,68.94,47,0,11.97,EG,1650825785
sukhobezvodnoye,57.0491,44.8891,48.83,60,100,3.58,RU,1650825786
moanda,-1.5575,13.2178,73.63,88,42,2.01,GA,1650825786
longyearbyen,78.2186,15.6401,10.24,56,20,8.05,SJ,1650825741
smirnykh,49.75,142.8333,29.61,81,59,12.24,RU,1650825786
buchanan,5.8808,-10.0467,81.54,82,78,5.68,LR,1650825787
the valley,18.217,-63.0578,84.06,61,40,16.11,AI,1650825787
japura,-0.3167,102.35,74.5,99,100,0.87,ID,1650825787
allapalli,19.4167,80.0667,89.98,29,33,1.77,IN,1650825788
sokolac,43.9397,18.8017,56.37,71,46,7.56,BA,1650825788
yazoo city,32.8551,-90.4056,82.71,58,62,12.08,US,1650825788
los llanos de aridane,28.6585,-17.9182,64.15,70,75,8.05,ES,1650825505
thinadhoo,0.5333,72.9333,84.9,70,80,8.61,MV,1650825789
louisbourg,,,,,,,,
mindif,10.3976,14.4363,95.97,27,100,5.64,CM,1650825789
opuwo,-18.0607,13.84,72.28,37,20,1.97,NA,1650825790
yangjiang,21.85,111.9667,76.15,96,21,7.52,CN,1650825790
baran,25.1,76.5167,91.65,12,3,5.57,IN,1650825790
kieta,-6.2167,155.6333,78.21,83,30,3.22,PG,1650825791
gao,16.6362,1.637,91.08,9,0,10.27,ML,1650825791
kiama,-34.6833,150.8667,62.38,88,100,1.99,AU,1650825791
jalu,29.0331,21.5482,82.33,14,100,8.12,LY,1650825792
stoyba,,,,,,,,
keti bandar,24.1447,67.4497,81.16,76,0,12.44,PK,1650825792
smolenka,52.1352,113.4974,23.07,86,73,4.47,RU,1650825792
kilrush,52.6397,-9.4833,58.75,72,6,12.15,IE,1650825818
quatre cocos,-20.2078,57.7625,75.31,73,100,18.92,MU,1650825818
hengshui,37.7322,115.7011,69.19,72,100,3.98,CN,1650825552
flinders,-34.5833,150.8552,62.19,90,100,5.99,AU,1650825818
areosa,41.7178,-8.8571,56.28,84,96,5.17,PT,1650825819
ushumun,52.7833,126.5333,27.55,53,6,4.65,RU,1650825819
camacha,33.0833,-16.3333,63.82,63,20,16.11,PT,1650825819
acurenam,1.0322,10.6488,69.91,99,100,2.8,GQ,1650825820
eldoret,0.5204,35.2699,60.89,100,75,2.3,KE,1650825820
blagoyevo,63.3667,47.9167,31.05,92,92,3.47,RU,1650825820
maragogi,-9.0122,-35.2225,81.61,73,100,8.61,BR,1650825821
beyneu,45.3167,55.2,59.31,49,9,13.65,KZ,1650825677
coquimbo,-29.9533,-71.3436,60.53,77,100,5.75,CL,1650825731
ahipara,-35.1667,173.1667,61.66,84,97,10.74,NZ,1650825821
gold coast,-28,153.4333,66.99,91,100,16.11,AU,1650825821
zhezkazgan,47.8043,67.7144,46.92,72,100,14.25,KZ,1650825822
burns lake,54.2331,-125.7533,51.22,57,100,5.55,CA,1650825822
scarborough,54.2797,-0.4044,47.77,85,25,5.99,GB,1650825822
narrabri,-30.3167,149.7833,55.49,71,87,11.5,AU,1650825823
srostki,52.4189,85.7022,31.35,72,7,3.65,RU,1650825823
rudbar,30.15,62.6,81.14,23,4,11.99,AF,1650825823
zabaykalsk,49.6333,117.3167,33.82,27,100,4.14,RU,1650825824
whitianga,-36.8333,175.7,56.86,90,71,6.91,NZ,1650825824
tlahualilo,,,,,,,,
fairbanks,64.8378,-147.7164,43.25,54,75,0,US,1650825646
araouane,18.9048,-3.5265,84,12,0,9.17,ML,1650825825
pierre,44.3683,-100.351,40.12,76,100,21.85,US,1650825615
staryy nadym,65.6118,72.6842,11.48,92,100,3.96,RU,1650825825
noshiro,40.2039,140.0242,50.5,87,77,3.24,JP,1650825825
novonikolayevskaya,45.5892,38.3689,53.65,69,0,5.08,RU,1650825826
puerto escondido,15.85,-97.0667,88.16,55,0,9.82,MX,1650825826
meulaboh,4.1363,96.1285,78.49,86,57,1.81,ID,1650825826
narasapur,16.45,81.6667,83.57,78,81,6.55,IN,1650825827
torbay,47.6666,-52.7314,38.35,96,100,16.11,CA,1650825527
topliceni,45.4167,27,61.14,59,100,4.59,RO,1650825827
chiang khong,20.2613,100.4046,75.29,79,30,1.16,TH,1650825827
kurilsk,45.2333,147.8833,41.77,71,74,9.17,RU,1650825828
san pancrazio salentino,40.4191,17.8305,61.99,82,2,9.42,IT,1650825828
tuburan,6.6439,122.2736,78.89,77,100,1.5,PH,1650825828
hihifo,,,,,,,,
maniitsoq,65.4167,-52.9,29.41,88,92,6.53,GL,1650825829
mackay,-21.15,149.2,75.18,83,75,25.32,AU,1650825829
bacuit,,,,,,,,
marathon,44.9,-89.7668,63.64,39,0,26.46,US,1650825829
umm kaddadah,13.6017,26.6876,86.29,6,7,12.75,SD,1650825830
matola,-25.9622,32.4589,76.95,88,20,10.36,MZ,1650825830
cocobeach,1.0002,9.5823,79.36,82,99,5.91,GA,1650825830
derzhavinsk,51.1,66.3167,41.18,48,54,11.43,KZ,1650825831
port shepstone,-30.7414,30.455,65.88,86,100,12.88,ZA,1650825831
adamovka,51.5223,59.9396,44.35,48,9,6.29,RU,1650825831
soyo,-6.1349,12.3689,78.55,90,70,6.13,AO,1650825832
sinnamary,5.3833,-52.95,81.21,84,84,10.87,GF,1650825832
sai buri,6.7013,101.6168,79.2,85,18,6.29,TH,1650825832
umzimvubu,,,,,,,,
matay,28.419,30.7792,79.75,17,0,18.72,EG,1650825858
raudeberg,61.9875,5.1352,47.07,82,35,15.77,NO,1650825858
pak phanang,8.3511,100.202,82.65,76,98,5.41,TH,1650825858
merced,37.1666,-120.7516,73.74,29,11,5.12,US,1650825859
surt,31.2089,16.5887,63.48,76,4,10.69,LY,1650825859
soroti,1.7146,33.6111,65.5,93,100,3.02,UG,1650825859
lanxi,29.2195,119.477,71.06,91,100,4.47,CN,1650825860
lebedinyy,58.5167,125.5167,17.91,83,98,5.12,RU,1650825860
fort frances,48.5999,-93.4003,42.17,72,100,9.22,CA,1650825860
wuwei,37.9281,102.6414,62.98,36,100,5.01,CN,1650825861
naron,43.5167,-8.1528,59.68,85,98,2.37,ES,1650825861
maxixe,-23.8597,35.3472,75.02,88,20,4.61,MZ,1650825861
palabuhanratu,,,,,,,,
rocha,-34.4833,-54.3333,77.5,31,0,13.49,UY,1650825862
tarn taran,31.45,74.9253,80.62,20,6,5.75,IN,1650825862
mount pleasant,32.7941,-79.8626,82.18,52,0,9.22,US,1650825646
cootamundra,-34.65,148.0333,55.94,89,95,6.8,AU,1650825862
samusu,,,,,,,,
kedougou,12.5579,-12.1743,106.38,11,0,4.61,SN,1650825863
urla,38.3229,26.764,64.8,60,14,1.54,TR,1650825863
cockburn town,21.4612,-71.1419,80.56,61,40,16.11,TC,1650825646
isangel,-19.55,169.2667,76.21,80,98,14.25,VU,1650825864
florianopolis,-27.6146,-48.5012,74.43,75,40,12.66,BR,1650825844
quetzaltepec,,,,,,,,
paamiut,61.994,-49.6678,32.41,90,100,10.51,GL,1650825603
phan thiet,10.9333,108.1,78.48,89,49,4.56,VN,1650825864
port-gentil,-0.7193,8.7815,78.76,89,20,2.3,GA,1650825865
manta,-0.95,-80.7333,83.98,74,40,10.36,EC,1650825865
prince rupert,54.3161,-130.3201,44.69,87,100,28.77,CA,1650825672
ornskoldsvik,63.2909,18.7153,40.15,60,12,4.61,SE,1650825865
mercedes,-34.6515,-59.4307,78.04,24,36,19.19,AR,1650825866
alcains,39.9164,-7.4566,54.7,70,81,3.2,PT,1650825866
lubango,-14.9172,13.4925,62.49,62,73,1.95,AO,1650825866
nanchang,28.6833,115.8833,75.15,86,99,6.31,CN,1650825867
jaciara,-15.9653,-54.9683,84.51,60,100,3.62,BR,1650825867
trujillo,-8.116,-79.03,62.56,88,100,11.5,PE,1650825651
houma,29.5958,-90.7195,84.2,70,67,8.99,US,1650825786
colares,38.7992,-9.4469,64.45,68,20,13,PT,1650825867
poso,-1.3959,120.7524,77.99,85,98,4.25,ID,1650825868
notodden,59.5594,9.2585,50.72,53,15,2.8,NO,1650825590
luwuk,-0.9516,122.7875,78.28,86,60,1.5,ID,1650825868
kamennogorsk,60.9545,29.1339,42.3,80,98,9.42,RU,1650825868
gushikawa,26.3544,127.8686,75.2,96,40,9.22,JP,1650825869
kamen-rybolov,44.7481,132.0403,45.23,47,100,3.2,RU,1650825869
digha,21.6833,87.55,82.13,88,5,13.51,IN,1650825869
puerto cabezas,14.0351,-83.3888,82.36,78,75,9.22,NI,1650825870
luanda,-8.8368,13.2343,77.61,85,76,10.83,AO,1650825591
boromo,11.75,-2.9333,98.17,9,3,6.15,BF,1650825870
sherbakul,54.6316,72.3963,38.01,49,65,7.11,RU,1650825870
asosa,10.0667,34.5333,71.47,58,100,2.71,ET,1650825871
sechura,-5.5569,-80.8222,80.49,59,84,11.61,PE,1650825871
vaitupu,,,,,,,,
cranbrook,49.4999,-115.7688,51.64,46,20,4.61,CA,1650825871
boddam,57.4667,-1.7833,45.43,81,100,7.85,GB,1650825872
kondol,52.8189,45.058,53.56,79,100,6.13,RU,1650825897
kangaba,11.9333,-8.4167,95.25,11,54,3.85,ML,1650825897
peace river,56.2501,-117.286,61.11,33,100,10.36,CA,1650825735
dongsheng,39.8161,109.9776,57.4,21,3,6.78,CN,1650825898
mezen,65.8522,44.24,26.69,97,80,5.26,RU,1650825898
sobolevo,54.4299,31.8996,46.74,84,98,7.99,RU,1650825898
desnogorsk,54.1508,33.2815,46.36,87,95,5.41,RU,1650825899
port-de-paix,,,,,,,,
grindavik,63.8424,-22.4338,45.07,81,100,11.5,IS,1650825899
plock,52.5468,19.7064,49.75,75,100,9.48,PL,1650825899
tadine,-21.55,167.8833,73.4,74,100,17.07,NC,1650825900
boende,-0.2167,20.8667,72.82,88,92,2.55,CD,1650825900
casper,42.8666,-106.3131,42.73,61,75,6.91,US,1650825900
gilgit,35.9221,74.3087,65.35,41,100,0.98,PK,1650825901
san juan,-31.5375,-68.5364,95.5,5,0,22.01,AR,1650825901
karratha,-20.7377,116.8463,78.26,54,5,6.85,AU,1650825901
orsha,54.5153,30.4053,46.44,82,100,9.06,BY,1650825902
pokhara,28.2333,83.9833,71.58,30,0,8.05,NP,1650825902
adrar,20.5022,-10.0711,83.57,22,0,11.63,MR,1650825903
jinchang,38.4953,102.1739,61.61,26,100,7.02,CN,1650825903
airai,-8.9266,125.4092,57.88,66,56,1.83,TL,1650825903
polewali,-3.4324,119.3435,76.71,91,78,2.95,ID,1650825904
mount gambier,-37.8333,140.7667,40.91,100,100,0,AU,1650825904
richards bay,-28.783,32.0377,71.92,82,100,8.75,ZA,1650825905
fort wellington,6.4,-57.6,83.3,72,48,7.18,GY,1650825905
ahuimanu,21.4447,-157.8378,76.71,73,100,13.8,US,1650825905
ler,8.3018,30.1418,83.8,58,100,9.62,SS,1650825906
nhulunbuy,-12.2333,136.7667,75.81,94,78,2.3,AU,1650825906
khorinsk,52.1657,109.7726,28.98,61,100,4.25,RU,1650825906
maralal,1.0968,36.698,61.16,85,85,6.98,KE,1650825907
totness,5.8833,-56.3167,80.65,82,66,10,SR,1650825907
prokopyevsk,53.9059,86.719,25.77,58,14,2.55,RU,1650825907
